{
"type": "FeatureCollection",
"name": "ttc_subway_osm",
"crs": { "type": "name", "properties": { "name": "urn:ogc:def:crs:OGC:1.3:CRS84" } },
"features": [
{ "type": "Feature", "properties": { "name": "Bay", "osm_id": 25991314 }, "geometry": { "type": "Point", "coordinates": [ -79.3902694, 43.6701851 ] } },
{ "type": "Feature", "properties": { "name": "Dundas West", "osm_id": 25991463 }, "geometry": { "type": "Point", "coordinates": [ -79.4530402, 43.656937 ] } },
{ "type": "Feature", "properties": { "name": "St. Patrick", "osm_id": 26240971 }, "geometry": { "type": "Point", "coordinates": [ -79.3882736, 43.6548199 ] } },
{ "type": "Feature", "properties": { "name": "TMU", "osm_id": 26240972 }, "geometry": { "type": "Point", "coordinates": [ -79.3810223, 43.6565367 ] } },
{ "type": "Feature", "properties": { "name": "St. George", "osm_id": 34710071 }, "geometry": { "type": "Point", "coordinates": [ -79.398844, 43.6684387 ] } },
{ "type": "Feature", "properties": { "name": "Osgoode", "osm_id": 34710072 }, "geometry": { "type": "Point", "coordinates": [ -79.3865409, 43.6508016 ] } },
{ "type": "Feature", "properties": { "name": "St. Andrew", "osm_id": 34710073 }, "geometry": { "type": "Point", "coordinates": [ -79.3848711, 43.6477917 ] } },
{ "type": "Feature", "properties": { "name": "King", "osm_id": 34710076 }, "geometry": { "type": "Point", "coordinates": [ -79.3777538, 43.6489494 ] } },
{ "type": "Feature", "properties": { "name": "Queen", "osm_id": 34710077 }, "geometry": { "type": "Point", "coordinates": [ -79.3794575, 43.6529083 ] } },
{ "type": "Feature", "properties": { "name": "College", "osm_id": 34710078 }, "geometry": { "type": "Point", "coordinates": [ -79.3827952, 43.6606617 ] } },
{ "type": "Feature", "properties": { "name": "Wellesley", "osm_id": 34710079 }, "geometry": { "type": "Point", "coordinates": [ -79.3838011, 43.6655242 ] } },
{ "type": "Feature", "properties": { "name": "St. Clair", "osm_id": 55493312 }, "geometry": { "type": "Point", "coordinates": [ -79.3936947, 43.6879512 ] } },
{ "type": "Feature", "properties": { "name": "Eglinton", "osm_id": 55493345 }, "geometry": { "type": "Point", "coordinates": [ -79.3985717, 43.7067597 ] } },
{ "type": "Feature", "properties": { "name": "Lawrence", "osm_id": 55786835 }, "geometry": { "type": "Point", "coordinates": [ -79.4024743, 43.7263483 ] } },
{ "type": "Feature", "properties": { "name": "York Mills", "osm_id": 56922357 }, "geometry": { "type": "Point", "coordinates": [ -79.406657, 43.7440391 ] } },
{ "type": "Feature", "properties": { "name": "Finch", "osm_id": 56922363 }, "geometry": { "type": "Point", "coordinates": [ -79.4158993, 43.7812974 ] } },
{ "type": "Feature", "properties": { "name": "Old Mill", "osm_id": 59980039 }, "geometry": { "type": "Point", "coordinates": [ -79.4943338, 43.649826 ] } },
{ "type": "Feature", "properties": { "name": "North York Centre", "osm_id": 60355167 }, "geometry": { "type": "Point", "coordinates": [ -79.4126298, 43.7686787 ] } },
{ "type": "Feature", "properties": { "name": "Summerhill", "osm_id": 70363937 }, "geometry": { "type": "Point", "coordinates": [ -79.3905037, 43.6816776 ] } },
{ "type": "Feature", "properties": { "name": "Queen's Park", "osm_id": 280372903 }, "geometry": { "type": "Point", "coordinates": [ -79.3901923, 43.6596838 ] } },
{ "type": "Feature", "properties": { "name": "Finch West", "osm_id": 410798844 }, "geometry": { "type": "Point", "coordinates": [ -79.4915419, 43.7639743 ] } },
{ "type": "Feature", "properties": { "name": "Sheppard West", "osm_id": 420561530 }, "geometry": { "type": "Point", "coordinates": [ -79.462248, 43.7492988 ] } },
{ "type": "Feature", "properties": { "name": "Keele", "osm_id": 424028617 }, "geometry": { "type": "Point", "coordinates": [ -79.4595795, 43.655569 ] } },
{ "type": "Feature", "properties": { "name": "High Park", "osm_id": 424028625 }, "geometry": { "type": "Point", "coordinates": [ -79.4668644, 43.6538668 ] } },
{ "type": "Feature", "properties": { "name": "Kipling", "osm_id": 432805453 }, "geometry": { "type": "Point", "coordinates": [ -79.5355081, 43.6376161 ] } },
{ "type": "Feature", "properties": { "name": "Glencairn", "osm_id": 560192986 }, "geometry": { "type": "Point", "coordinates": [ -79.4406853, 43.7086497 ] } },
{ "type": "Feature", "properties": { "name": "Bloor-Yonge", "osm_id": 1157217363 }, "geometry": { "type": "Point", "coordinates": [ -79.3856867, 43.6707855 ] } },
{ "type": "Feature", "properties": { "name": "Runnymede", "osm_id": 2249683136 }, "geometry": { "type": "Point", "coordinates": [ -79.4759978, 43.6517026 ] } },
{ "type": "Feature", "properties": { "name": "Jane", "osm_id": 2249683137 }, "geometry": { "type": "Point", "coordinates": [ -79.4838463, 43.6499177 ] } },
{ "type": "Feature", "properties": { "name": "Sherbourne", "osm_id": 2481423750 }, "geometry": { "type": "Point", "coordinates": [ -79.376394, 43.6722828 ] } },
{ "type": "Feature", "properties": { "name": "Castle Frank", "osm_id": 2707352285 }, "geometry": { "type": "Point", "coordinates": [ -79.3690458, 43.6734986 ] } },
{ "type": "Feature", "properties": { "name": "Chaplin", "osm_id": 2906221882 }, "geometry": { "type": "Point", "coordinates": [ -79.417291, 43.7027932 ] } },
{ "type": "Feature", "properties": { "name": "Vaughan Metropolitan Centre", "osm_id": 4357782894 }, "geometry": { "type": "Point", "coordinates": [ -79.5274638, 43.7942413 ] } },
{ "type": "Feature", "properties": { "name": "Kennedy", "osm_id": 4875013046 }, "geometry": { "type": "Point", "coordinates": [ -79.2637529, 43.732429 ] } },
{ "type": "Feature", "properties": { "name": "Downsview Park", "osm_id": 5061304513 }, "geometry": { "type": "Point", "coordinates": [ -79.4784098, 43.7535983 ] } },
{ "type": "Feature", "properties": { "name": "Christie", "osm_id": 5262888213 }, "geometry": { "type": "Point", "coordinates": [ -79.4183969, 43.6641066 ] } },
{ "type": "Feature", "properties": { "name": "Sheppard-Yonge", "osm_id": 5318480902 }, "geometry": { "type": "Point", "coordinates": [ -79.4109148, 43.7614518 ] } },
{ "type": "Feature", "properties": { "name": "Bayview", "osm_id": 5318480907 }, "geometry": { "type": "Point", "coordinates": [ -79.3873787, 43.7667987 ] } },
{ "type": "Feature", "properties": { "name": "Bessarion", "osm_id": 5318484724 }, "geometry": { "type": "Point", "coordinates": [ -79.3765761, 43.7691308 ] } },
{ "type": "Feature", "properties": { "name": "Don Mills", "osm_id": 5318484736 }, "geometry": { "type": "Point", "coordinates": [ -79.3459439, 43.775347 ] } },
{ "type": "Feature", "properties": { "name": "Leslie", "osm_id": 5318484741 }, "geometry": { "type": "Point", "coordinates": [ -79.365634, 43.7710725 ] } },
{ "type": "Feature", "properties": { "name": "Davisville", "osm_id": 5319182778 }, "geometry": { "type": "Point", "coordinates": [ -79.3972908, 43.697936 ] } },
{ "type": "Feature", "properties": { "name": "Union", "osm_id": 5320067932 }, "geometry": { "type": "Point", "coordinates": [ -79.3802085, 43.6456424 ] } },
{ "type": "Feature", "properties": { "name": "Spadina", "osm_id": 5320293105 }, "geometry": { "type": "Point", "coordinates": [ -79.4047039, 43.6685404 ] } },
{ "type": "Feature", "properties": { "name": "Museum", "osm_id": 5320293827 }, "geometry": { "type": "Point", "coordinates": [ -79.3933506, 43.6668462 ] } },
{ "type": "Feature", "properties": { "name": "St. Clair West", "osm_id": 5320349308 }, "geometry": { "type": "Point", "coordinates": [ -79.4153079, 43.6850034 ] } },
{ "type": "Feature", "properties": { "name": "Dupont", "osm_id": 5320349317 }, "geometry": { "type": "Point", "coordinates": [ -79.406983, 43.6747046 ] } },
{ "type": "Feature", "properties": { "name": "Cedarvale", "osm_id": 5320359169 }, "geometry": { "type": "Point", "coordinates": [ -79.4361076, 43.6992438 ] } },
{ "type": "Feature", "properties": { "name": "Wilson", "osm_id": 5321922638 }, "geometry": { "type": "Point", "coordinates": [ -79.4500619, 43.7344762 ] } },
{ "type": "Feature", "properties": { "name": "Yorkdale", "osm_id": 5321922639 }, "geometry": { "type": "Point", "coordinates": [ -79.4475031, 43.7246418 ] } },
{ "type": "Feature", "properties": { "name": "Lawrence West", "osm_id": 5321922640 }, "geometry": { "type": "Point", "coordinates": [ -79.4439143, 43.7152207 ] } },
{ "type": "Feature", "properties": { "name": "Highway 407", "osm_id": 5321964774 }, "geometry": { "type": "Point", "coordinates": [ -79.5230877, 43.7833141 ] } },
{ "type": "Feature", "properties": { "name": "Pioneer Village", "osm_id": 5321964779 }, "geometry": { "type": "Point", "coordinates": [ -79.5092824, 43.7768588 ] } },
{ "type": "Feature", "properties": { "name": "Pape", "osm_id": 5325077186 }, "geometry": { "type": "Point", "coordinates": [ -79.3449046, 43.6799212 ] } },
{ "type": "Feature", "properties": { "name": "Royal York", "osm_id": 5326455477 }, "geometry": { "type": "Point", "coordinates": [ -79.5112961, 43.6481827 ] } },
{ "type": "Feature", "properties": { "name": "Islington", "osm_id": 5326471419 }, "geometry": { "type": "Point", "coordinates": [ -79.5248163, 43.645335 ] } },
{ "type": "Feature", "properties": { "name": "Lansdowne", "osm_id": 5326476228 }, "geometry": { "type": "Point", "coordinates": [ -79.4427866, 43.6591114 ] } },
{ "type": "Feature", "properties": { "name": "Dufferin", "osm_id": 5326479603 }, "geometry": { "type": "Point", "coordinates": [ -79.4353869, 43.6602635 ] } },
{ "type": "Feature", "properties": { "name": "Ossington", "osm_id": 5326487199 }, "geometry": { "type": "Point", "coordinates": [ -79.42633, 43.6623783 ] } },
{ "type": "Feature", "properties": { "name": "Bathurst", "osm_id": 5326501680 }, "geometry": { "type": "Point", "coordinates": [ -79.4112359, 43.6659322 ] } },
{ "type": "Feature", "properties": { "name": "Warden", "osm_id": 5326530554 }, "geometry": { "type": "Point", "coordinates": [ -79.2790432, 43.7111204 ] } },
{ "type": "Feature", "properties": { "name": "Victoria Park", "osm_id": 5326535707 }, "geometry": { "type": "Point", "coordinates": [ -79.2887965, 43.6948799 ] } },
{ "type": "Feature", "properties": { "name": "Main Street", "osm_id": 5326541297 }, "geometry": { "type": "Point", "coordinates": [ -79.3016043, 43.6890489 ] } },
{ "type": "Feature", "properties": { "name": "Woodbine", "osm_id": 5326548040 }, "geometry": { "type": "Point", "coordinates": [ -79.3126246, 43.6864139 ] } },
{ "type": "Feature", "properties": { "name": "Coxwell", "osm_id": 5326551838 }, "geometry": { "type": "Point", "coordinates": [ -79.323043, 43.6841524 ] } },
{ "type": "Feature", "properties": { "name": "Greenwood", "osm_id": 5326558129 }, "geometry": { "type": "Point", "coordinates": [ -79.3302652, 43.6825599 ] } },
{ "type": "Feature", "properties": { "name": "Donlands", "osm_id": 5326559427 }, "geometry": { "type": "Point", "coordinates": [ -79.3377871, 43.6810265 ] } },
{ "type": "Feature", "properties": { "name": "York University", "osm_id": 5409164979 }, "geometry": { "type": "Point", "coordinates": [ -79.4996291, 43.7741232 ] } },
{ "type": "Feature", "properties": { "name": "Toronto Union Station", "osm_id": 6997477908 }, "geometry": { "type": "Point", "coordinates": [ -79.380381, 43.6445345 ] } },
{ "type": "Feature", "properties": { "name": "Chester", "osm_id": 8901485524 }, "geometry": { "type": "Point", "coordinates": [ -79.3525143, 43.6782277 ] } },
{ "type": "Feature", "properties": { "name": "Leaside", "osm_id": 10129010417 }, "geometry": { "type": "Point", "coordinates": [ -79.3771168, 43.7111037 ] } },
{ "type": "Feature", "properties": { "name": "Laird", "osm_id": 10129010418 }, "geometry": { "type": "Point", "coordinates": [ -79.3651381, 43.7134933 ] } },
{ "type": "Feature", "properties": { "name": "Forest Hill", "osm_id": 12695332354 }, "geometry": { "type": "Point", "coordinates": [ -79.4255354, 43.7010475 ] } },
{ "type": "Feature", "properties": { "name": "Milvan Rumike", "osm_id": 13183322624 }, "geometry": { "type": "Point", "coordinates": [ -79.552337, 43.7499601 ] } },
{ "type": "Feature", "properties": { "name": "Duncanwoods", "osm_id": 13183335708 }, "geometry": { "type": "Point", "coordinates": [ -79.556895, 43.7489724 ] } },
{ "type": "Feature", "properties": { "name": "Humber College", "osm_id": 13183364694 }, "geometry": { "type": "Point", "coordinates": [ -79.6015296, 43.7299048 ] } },
{ "type": "Feature", "properties": { "name": "Westmore", "osm_id": 13183377784 }, "geometry": { "type": "Point", "coordinates": [ -79.6003652, 43.7348147 ] } },
{ "type": "Feature", "properties": { "name": "Mount Olive", "osm_id": 13183401383 }, "geometry": { "type": "Point", "coordinates": [ -79.5813581, 43.7433737 ] } },
{ "type": "Feature", "properties": { "name": "Martin Grove", "osm_id": 13184370409 }, "geometry": { "type": "Point", "coordinates": [ -79.5923394, 43.7366316 ] } },
{ "type": "Feature", "properties": { "name": "Albion", "osm_id": 13185367130 }, "geometry": { "type": "Point", "coordinates": [ -79.5892051, 43.7411377 ] } },
{ "type": "Feature", "properties": { "name": "Stevenson", "osm_id": 13186248154 }, "geometry": { "type": "Point", "coordinates": [ -79.5865726, 43.7432573 ] } },
{ "type": "Feature", "properties": { "name": "Sentinel", "osm_id": 13189961937 }, "geometry": { "type": "Point", "coordinates": [ -79.500013, 43.7610537 ] } },
{ "type": "Feature", "properties": { "name": "Jane and Finch", "osm_id": 13190016241 }, "geometry": { "type": "Point", "coordinates": [ -79.517746, 43.7572507 ] } },
{ "type": "Feature", "properties": { "name": "Driftwood", "osm_id": 13190037594 }, "geometry": { "type": "Point", "coordinates": [ -79.5133814, 43.7580635 ] } },
{ "type": "Feature", "properties": { "name": "Signet Arrow", "osm_id": 13190040679 }, "geometry": { "type": "Point", "coordinates": [ -79.5361882, 43.7532955 ] } },
{ "type": "Feature", "properties": { "name": "Norfinch Oakdale", "osm_id": 13190931941 }, "geometry": { "type": "Point", "coordinates": [ -79.524251, 43.7559301 ] } },
{ "type": "Feature", "properties": { "name": "Emery", "osm_id": 13190940971 }, "geometry": { "type": "Point", "coordinates": [ -79.5423827, 43.7520405 ] } },
{ "type": "Feature", "properties": { "name": "Rowntree Mills", "osm_id": 13190973862 }, "geometry": { "type": "Point", "coordinates": [ -79.5685629, 43.7462218 ] } },
{ "type": "Feature", "properties": { "name": "Pearldale", "osm_id": 13190973883 }, "geometry": { "type": "Point", "coordinates": [ -79.5629559, 43.7476892 ] } },
{ "type": "Feature", "properties": { "name": "Tobermory", "osm_id": 13196730807 }, "geometry": { "type": "Point", "coordinates": [ -79.5079134, 43.7592824 ] } },
{ "type": "Feature", "properties": { "name": "Mount Pleasant", "osm_id": 13335979103 }, "geometry": { "type": "Point", "coordinates": [ -79.3901439, 43.7084636 ] } },
{ "type": "Feature", "properties": { "name": "Mount Dennis", "osm_id": 13429177934 }, "geometry": { "type": "Point", "coordinates": [ -79.4861859, 43.6879318 ] } },
{ "type": "Feature", "properties": { "name": "Keelesdale", "osm_id": 13429325097 }, "geometry": { "type": "Point", "coordinates": [ -79.4747508, 43.6904666 ] } }
]
}
